,City,Lat,Lng,Max Temp,Humidity,Cloudiness,Wind Speed,Country,Date
0,Vaini,-21.2,-175.2,66.36,94,20,4.61,TO,1661195851
1,Mataura,-46.1927,168.8643,42.48,96,100,3.02,NZ,1661195852
2,Arman',59.7,150.1667,55.02,99,100,10.87,RU,1661195852
3,Nsanje,-16.92,35.262,71.89,51,5,8.72,MW,1661195790
4,Ranau,5.9538,116.6641,69.94,96,100,1.92,MY,1661195853
5,New Norfolk,-42.7826,147.0587,39.7,81,15,1.99,AU,1661195853
6,Saint-Philippe,-21.3585,55.7679,67.21,75,19,8.63,RE,1661195854
7,Barcelona,41.3888,2.159,81.01,79,20,6.91,ES,1661195855
8,Bluff,-46.6,168.3333,42.8,88,100,11.72,NZ,1661195855
9,Provideniya,64.3833,-173.3,49.77,67,0,2.17,RU,1661195718
10,Algiers,36.7525,3.042,78.62,74,0,9.22,DZ,1661195856
11,Puri,19.8,85.85,79.32,77,100,7.45,IN,1661195856
12,Kill,52.1761,-7.335,64.72,89,0,9.22,IE,1661195857
13,São Filipe,14.8961,-24.4956,78.55,86,100,8.97,CV,1661195857
14,Cape Town,-33.9258,18.4232,59.92,74,0,9.22,ZA,1661195810
15,Bengkulu,-3.8004,102.2655,74.73,88,84,4.23,ID,1661195858
16,Avarua,-21.2078,-159.775,69.85,88,75,5.75,CK,1661195859
17,Punta Arenas,-53.15,-70.9167,44.71,57,20,17.27,CL,1661195859
18,Mar del Plata,-38.0023,-57.5575,58.08,74,75,11.5,AR,1661195784
19,Clyde River,70.4692,-68.5914,39.16,81,73,14.38,CA,1661195640
20,Nikolskoye,59.7035,30.7861,69.69,82,99,2.8,RU,1661195860
21,Ushuaia,-54.8,-68.3,44.22,56,0,2.3,AR,1661195861
22,Qaanaaq,77.484,-69.3632,38.34,63,78,0.29,GL,1661195861
23,Atuona,-9.8,-139.0333,75.7,67,19,12.57,PF,1661195862
24,Bathsheba,13.2167,-59.5167,88.41,66,40,12.66,BB,1661195862
25,Hermanus,-34.4187,19.2345,52.81,83,100,10.58,ZA,1661195863
26,Kolyshley,52.7005,44.5367,70.21,48,0,9.37,RU,1661195864
27,Samarai,-10.6167,150.6667,78.33,84,36,11.25,PG,1661195864
28,Ribeira Grande,38.5167,-28.7,77.4,69,40,6.91,PT,1661195865
29,Torbay,47.6666,-52.7314,76.87,70,40,18.41,CA,1661195865
30,Kisangani,0.5167,25.2,72.05,97,100,1.66,CD,1661195866
31,Dolisie,-4.1997,12.6739,72.05,80,100,5.5,CG,1661195866
32,Ixtapa,20.7,-105.2,90.23,51,20,5.99,MX,1661195575
33,Xiaoweizhai,26.1903,107.5125,71.37,98,99,3.22,CN,1661195867
34,Richards Bay,-28.783,32.0377,60.85,69,0,4.47,ZA,1661195867
35,Hobart,-42.8794,147.3294,40.05,79,9,9.22,AU,1661195754
36,Batagay,67.6333,134.6333,45.95,84,100,7.92,RU,1661195868
37,Rikitea,-23.1203,-134.9692,69.82,72,22,12.1,PF,1661195868
38,Chokurdakh,70.6333,147.9167,52.65,90,100,8.19,RU,1661195650
39,Ilulissat,69.2167,-51.1,44.62,87,100,18.41,GL,1661195874
40,Ha Tinh,18.3333,105.9,79.2,83,100,3.94,VN,1661195874
41,Albany,42.6001,-73.9662,77.72,97,100,3.31,US,1661195736
42,Hilo,19.7297,-155.09,81.28,78,100,4.61,US,1661195652
43,Roblin,51.23,-101.3565,72.05,67,92,11.48,CA,1661195875
44,Kahului,20.8947,-156.47,79.97,80,40,8.05,US,1661195876
45,Olafsvik,64.8945,-23.7142,49.46,71,55,10.22,IS,1661195876
46,Vanavara,60.34,102.2797,41.34,93,100,4.0,RU,1661195876
47,Gobabis,-22.45,18.9667,56.95,17,0,11.43,NA,1661195877
48,Jaqué,7.5175,-78.1703,77.25,90,100,9.08,PA,1661195878
49,Buala,-8.145,159.5921,79.68,81,100,8.08,SB,1661195878
50,Basco,20.4487,121.9702,84.2,78,14,21.85,PH,1661195878
51,Klaksvík,62.2266,-6.589,52.72,84,100,18.39,FO,1661195651
52,Santa Lucía,27.9117,-15.5407,72.77,73,20,28.77,ES,1661195681
53,Thompson,55.7435,-97.8558,64.56,45,20,0.0,CA,1661195879
54,Zhuhai,22.2769,113.5678,85.86,89,20,2.3,CN,1661195880
55,Fartura,-23.3883,-49.51,70.65,60,11,9.51,BR,1661195880
56,Te Anau,-45.4167,167.7167,37.29,93,85,4.09,NZ,1661195881
57,Kidal,18.4411,1.4078,100.71,10,3,11.5,ML,1661195670
58,Port-Gentil,-0.7193,8.7815,75.16,94,100,13.8,GA,1661195881
59,Myingyan,21.4667,95.3833,78.82,85,65,10.51,MM,1661195882
60,Hobyo,5.3505,48.5268,76.48,86,5,25.77,SO,1661195883
61,Busselton,-33.65,115.3333,44.2,85,16,10.07,AU,1661195883
62,Labuhan,-6.8844,112.2051,77.02,82,37,7.63,ID,1661195883
63,Biysk,52.5364,85.2072,52.3,79,100,3.49,RU,1661195884
64,Jamestown,42.097,-79.2353,71.19,72,100,17.27,US,1661195885
65,Hasaki,35.7333,140.8333,75.29,93,33,3.0,JP,1661195885
66,Dikson,73.5069,80.5464,40.68,95,100,7.94,RU,1661195886
67,Kenai,60.5544,-151.2583,56.14,96,100,12.66,US,1661195872
68,Bourail,-21.5667,165.4833,65.79,91,19,4.88,NC,1661195887
69,Kapaa,22.0752,-159.319,84.18,70,20,14.97,US,1661195887
70,Takoradze,4.8845,-1.7554,75.52,86,96,11.12,GH,1661195799
71,São João do Piauí,-8.3581,-42.2467,90.72,25,100,9.98,BR,1661195888
72,Awjilah,29.1081,21.2869,88.09,33,0,5.88,LY,1661195888
73,Berlevåg,70.8578,29.0864,62.4,82,75,1.14,NO,1661195889
74,Uruçuí,-7.2294,-44.5561,95.52,22,34,8.32,BR,1661195889
75,Yarim,14.298,44.3779,61.48,70,79,0.27,YE,1661195890
76,Amapá,1.0,-52.0,84.94,58,100,3.18,BR,1661195767
77,Payyanur,12.1,75.2,76.68,88,99,6.42,IN,1661195890
78,Upernavik,72.7868,-56.1549,41.95,58,100,4.81,GL,1661195891
79,Jumla,29.2747,82.1838,61.3,85,45,2.48,NP,1661195891
80,Bethel,41.3712,-73.414,76.59,83,100,3.44,US,1661195892
81,Puerto Ayora,-0.7393,-90.3518,75.16,91,100,10.0,EC,1661195892
82,Bredasdorp,-34.5322,20.0403,49.39,88,100,4.85,ZA,1661195722
83,Marsabit,2.3284,37.9899,69.33,40,6,22.95,KE,1661195893
84,Vardø,70.3705,31.1107,58.98,82,40,4.61,NO,1661195894
85,Tura,25.5198,90.2201,76.59,91,100,0.78,IN,1661195894
86,Muisne,0.6,-80.0333,77.83,75,95,8.52,EC,1661195895
87,Kimbe,-5.5502,150.1429,73.38,92,13,2.73,PG,1661195896
88,Odesskoye,54.2111,72.9651,52.29,72,26,3.51,RU,1661195896
89,Çanta,41.1181,28.0803,75.67,88,0,11.5,TR,1661195897
90,Quzhou,28.9594,118.8686,84.4,62,100,2.75,CN,1661195897
91,Tūkrah,32.5341,20.5791,80.62,62,0,3.89,LY,1661195898
92,Tiksi,71.6872,128.8694,38.52,84,100,10.2,RU,1661195898
93,Leamington,42.0549,-82.6062,82.87,69,24,7.0,CA,1661195899
94,Kommunar,59.6206,30.39,69.33,85,97,2.53,RU,1661195899
95,Necochea,-38.5473,-58.7368,58.32,58,100,10.76,AR,1661195865
96,Gwanda,-20.9333,29.0,56.53,52,37,6.76,ZW,1661195900
97,Ikare,7.4913,5.2322,71.58,97,100,5.73,NG,1661195901
98,Balkhash,46.844,74.9804,67.23,34,44,8.63,KZ,1661195901
99,Remanso,-9.6179,-42.0831,83.71,36,83,7.9,BR,1661195902
100,Arraial do Cabo,-22.9661,-42.0278,67.96,73,75,10.36,BR,1661195902
101,Lithakia,37.7167,20.8333,78.08,69,20,3.44,GR,1661195903
102,Kumluca,36.3703,30.2869,78.89,72,0,2.19,TR,1661195903
103,Barabash,43.2,131.4833,58.1,85,0,5.1,RU,1661195904
104,Geraldton,-28.7667,114.6,55.81,54,0,21.85,AU,1661195904
105,Filingué,14.3521,3.3168,95.47,38,96,8.3,NE,1661195905
106,Dhārchula,29.85,80.5333,71.91,92,71,2.46,IN,1661195906
107,Bandarbeyla,9.4942,50.8122,76.87,75,70,29.37,SO,1661195906
108,Ati,13.2154,18.3353,85.28,64,70,9.6,TD,1661195906
109,Lebu,-37.6167,-73.65,53.64,83,100,9.17,CL,1661195886
110,Aktanysh,55.7216,54.0829,66.09,55,0,4.41,RU,1661195907
111,Shimoda,34.6667,138.95,75.11,89,75,2.21,JP,1661195908
112,Anadyr,64.75,177.4833,48.7,87,100,6.71,RU,1661195908
113,Sémbé,1.6481,14.5806,70.45,98,100,2.75,CG,1661195909
114,Port Alfred,-33.5906,26.891,58.33,75,6,1.07,ZA,1661195909
115,San Patricio,28.017,-97.5169,95.18,43,100,12.3,US,1661195721
116,Horsham,51.064,-0.3272,68.02,90,75,3.44,GB,1661195871
117,Mahébourg,-20.4081,57.7,72.25,88,75,6.91,MU,1661195805
118,Manono,-7.3,27.4167,82.44,29,25,5.84,CD,1661195911
119,Port Elizabeth,-33.918,25.5701,54.1,94,0,2.3,ZA,1661195911
120,Pevek,69.7008,170.3133,45.79,78,100,20.29,RU,1661195912
121,Nampa,43.5407,-116.5635,93.29,34,0,4.61,US,1661195799
122,Muncar,-8.4333,114.3333,74.14,87,49,6.8,ID,1661195913
123,Avera,33.194,-82.5271,81.91,53,95,8.99,US,1661195917
124,Andenes,69.3143,16.1194,52.93,87,75,16.11,NO,1661195918
125,Barrow,71.2906,-156.7887,33.82,86,100,25.32,US,1661195809
126,Itambacuri,-18.0311,-41.685,76.37,46,99,7.23,BR,1661195919
127,Lagoa,39.05,-27.9833,73.2,78,75,12.08,PT,1661195920
128,Tasiilaq,65.6145,-37.6368,46.56,79,23,1.59,GL,1661195920
129,La Ronge,55.1001,-105.2842,70.05,56,40,6.91,CA,1661195921
130,Castro,-24.7911,-50.0119,60.55,76,100,6.13,BR,1661195921
131,Saint Paul Harbor,57.79,-152.4072,54.91,94,100,13.8,US,1661195922
132,Souillac,-20.5167,57.5167,70.18,88,75,6.91,MU,1661195922
133,Ankang,32.68,109.0172,82.83,66,100,4.83,CN,1661195662
134,Sovetskaya Gavan',48.9723,140.2878,61.86,93,100,8.99,RU,1661195923
135,Abbeville,50.1,1.8333,73.49,67,99,4.94,FR,1661195816
136,Lagunas,-5.2269,-75.6753,91.09,33,59,3.65,PE,1661195924
137,Beringovskiy,63.05,179.3167,51.44,91,100,6.62,RU,1661195860
138,Camopi,3.1655,-52.3158,81.01,74,100,1.21,GF,1661195889
139,Linxia Chengguanzhen,35.6003,103.2064,63.32,83,100,1.39,CN,1661195929
140,Coquimbo,-29.9533,-71.3436,58.73,72,20,9.22,CL,1661195929
141,Doka,13.5167,35.7667,74.71,76,100,4.05,SD,1661195930
142,Santa Cruz de la Sierra,-17.8,-63.1667,81.86,28,0,3.44,BO,1661195899
143,Laas,46.6166,10.7002,70.68,72,5,6.33,IT,1661195721
144,Lagos,6.5833,3.75,75.6,89,100,7.87,NG,1661195931
145,Ürümqi,43.801,87.6005,54.55,67,0,6.71,CN,1661195932
146,Departamento de Maldonado,-34.6667,-54.9167,58.39,54,5,10.02,UY,1661195932
147,Bambous Virieux,-20.3428,57.7575,72.21,88,75,6.91,MU,1661195933
148,Kaitangata,-46.2817,169.8464,38.03,94,12,4.32,NZ,1661195933
149,Gornopravdinsk,60.05,69.9,56.23,96,51,2.44,RU,1661195936
150,Alvorada,-12.48,-49.1247,91.92,21,19,8.57,BR,1661195937
151,Kaeo,-35.1,173.7833,51.33,93,49,10.36,NZ,1661195938
152,Pangody,65.85,74.4859,59.81,89,100,8.99,RU,1661195938
153,Ponta do Sol,32.6667,-17.1,75.83,70,32,6.6,PT,1661195939
154,Butaritari,3.0707,172.7902,80.35,78,9,12.77,KI,1661195939
155,Kailua,21.4022,-157.7394,84.18,66,20,11.5,US,1661195940
156,Hamilton,39.1834,-84.5333,79.75,75,75,9.22,US,1661195851
157,Luorong,24.4058,109.6086,80.47,85,100,2.33,CN,1661195941
158,Karratha,-20.7377,116.8463,70.43,25,0,11.18,AU,1661195888
159,Santa Maria,-29.6842,-53.8069,65.88,59,3,6.55,BR,1661195927
160,Port Pirie,-33.1833,138.0167,42.51,86,17,8.99,AU,1661195941
161,Pacific Grove,36.6177,-121.9166,78.35,81,40,5.99,US,1661195908
162,Surgut,61.25,73.4167,51.98,100,0,0.0,RU,1661195942
163,Aguié,13.506,7.7786,82.98,58,100,3.38,NE,1661195943
164,Khatanga,71.9667,102.5,46.62,71,100,10.18,RU,1661195943
165,Sinnamary,5.3833,-52.95,81.27,82,73,2.28,GF,1661195944
166,Cherskiy,68.75,161.3,55.4,76,100,16.11,RU,1661195944
167,Kruisfontein,-34.0033,24.7314,51.89,89,6,3.15,ZA,1661195866
168,Jalu,29.0331,21.5482,88.12,31,0,8.93,LY,1661195945
169,Nānākuli,21.3906,-158.1547,84.15,56,0,8.05,US,1661195945
170,Luena,-11.7833,19.9167,64.29,34,32,3.33,AO,1661195946
171,Asău,46.4333,26.4,65.32,91,79,3.78,RO,1661195947
172,Dingle,10.9995,122.6711,75.29,90,100,6.11,PH,1661195947
173,Denpasar,-8.65,115.2167,78.46,83,75,14.97,ID,1661195948
174,Merrill,45.1805,-89.6835,80.62,49,75,6.91,US,1661195948
175,Tekeli,44.83,78.8239,51.39,40,0,9.37,KZ,1661195948
176,Kavieng,-2.5744,150.7967,80.98,71,14,10.27,PG,1661195949
177,Guerrero Negro,27.9769,-114.0611,77.68,64,90,12.88,MX,1661195949
178,Inongo,-1.95,18.2667,65.66,96,100,1.72,CD,1661195950
179,Igarapava,-20.0383,-47.7469,83.32,23,8,2.68,BR,1661195950
180,George Town,5.4112,100.3354,82.33,87,20,3.44,MY,1661195732
181,Nikšić,42.7731,18.9445,66.67,85,31,4.59,ME,1661195951
182,Corinth,37.9407,22.9573,77.9,80,1,2.98,GR,1661195951
183,Mwinilunga,-11.7358,24.4293,66.13,36,6,4.83,ZM,1661195952
184,Margate,51.3813,1.3862,69.87,73,53,3.0,GB,1661195952
185,Mount Gambier,-37.8333,140.7667,44.38,59,66,10.78,AU,1661195953
186,Vila Velha,-20.3297,-40.2925,71.55,70,75,16.11,BR,1661195728
187,Sitka,57.0531,-135.33,62.49,77,75,5.75,US,1661195954
188,Verkhnevilyuysk,63.4453,120.3167,41.83,94,100,5.84,RU,1661195954
189,Mehamn,71.0357,27.8492,55.35,76,75,9.22,NO,1661195955
190,Manyoni,-5.7467,34.8382,69.46,41,16,10.58,TZ,1661195955
191,Kamina,-8.7386,24.9906,72.32,35,8,5.55,CD,1661195956
192,Alyangula,-13.8483,136.4192,58.87,94,100,2.3,AU,1661195956
193,Pangnirtung,66.1451,-65.7125,48.2,81,75,14.97,CA,1661195957
194,Khorixas,-20.3667,14.9667,68.72,10,0,6.62,NA,1661195957
195,Kokopo,-4.352,152.2633,74.75,82,74,4.07,PG,1661195958
196,Ambilobe,-13.2,49.05,68.41,68,15,4.74,MG,1661195958
197,Petropavlovsk-Kamchatskiy,53.0452,158.6483,52.39,100,20,2.24,RU,1661195959
198,Zheleznodorozhnyy,55.7503,38.0042,75.72,43,100,4.81,RU,1661195959
199,Kikwit,-5.041,18.8162,74.43,78,98,1.99,CD,1661195960
200,Dzaoudzi,-12.7887,45.2699,75.09,78,0,9.22,YT,1661195960
201,Normandin,48.8333,-72.5321,77.13,57,75,5.75,CA,1661195961
202,San Quintín,30.4833,-115.95,74.19,72,5,14.36,MX,1661195939
203,Lompoc,34.6391,-120.4579,86.68,72,0,11.5,US,1661195961
204,Tuktoyaktuk,69.4541,-133.0374,39.2,87,100,12.66,CA,1661195962
205,Vakhrushev,48.9833,142.9667,62.42,91,100,6.69,RU,1661195963
206,Ramsar,36.9226,50.6426,78.24,73,40,0.0,IR,1661195963
207,Ust-Nera,64.5667,143.2,52.25,97,100,2.64,RU,1661195964
208,Misratah,32.3754,15.0925,81.93,64,8,12.08,LY,1661195964
209,Adwa,14.1646,38.8955,61.99,87,57,2.21,ET,1661195965
210,Waynesville,35.4887,-82.9887,80.85,73,100,3.0,US,1661195965
211,East London,-33.0153,27.9116,60.64,73,45,3.83,ZA,1661195966
212,Luís Correia,-2.8792,-41.6669,86.0,66,0,16.11,BR,1661195966
213,Mizdah,31.4451,12.9801,79.86,38,6,11.79,LY,1661195967
214,Santiago,-33.4569,-70.6483,72.25,64,100,3.44,CL,1661195755
215,Boyolangu,-8.1181,111.8935,73.29,92,79,5.68,ID,1661195967
216,Naze,28.3667,129.4833,79.72,87,100,11.63,JP,1661195968
217,Los Alamos,35.8881,-106.307,73.94,73,21,5.64,US,1661195968
218,Kamenka,51.3223,42.7678,73.78,40,0,10.96,RU,1661195969
219,Yangi Marg`ilon,40.4272,71.7189,72.32,37,45,4.61,UZ,1661195959
220,Saskylakh,71.9167,114.0833,40.93,78,82,4.27,RU,1661195969
221,Tongchuanshi,35.0806,109.0897,74.86,63,98,8.32,CN,1661195970
222,Makakilo City,21.3469,-158.0858,82.72,57,0,8.05,US,1661195970
223,Conceição da Barra,-18.5933,-39.7322,70.95,69,100,13.29,BR,1661195971
224,Hornepayne,49.2138,-84.7705,69.78,61,100,6.24,CA,1661195971
225,The Valley,18.217,-63.0578,87.82,74,40,11.5,AI,1661195972
226,Evensk,61.95,159.2333,51.64,98,100,1.28,RU,1661195972
227,Saint George,37.1041,-113.5841,94.78,32,0,3.0,US,1661195973
228,Esperance,-33.8667,121.9,55.22,56,100,10.49,AU,1661195974
229,Ongandjera,-17.8833,15.0667,66.36,12,0,9.31,NA,1661195976
230,Yamada,39.4667,141.95,73.13,97,84,8.25,JP,1661195976
231,Lorengau,-2.0226,147.2712,81.37,71,12,10.22,PG,1661195976
232,Faanui,-16.4833,-151.75,77.41,76,50,16.28,PF,1661195977
233,Severo-Kuril'sk,50.6789,156.125,54.57,79,100,2.37,RU,1661195978
234,Mount Isa,-20.7333,139.5,62.37,31,0,10.36,AU,1661195978
235,Sydney Mines,46.2367,-60.2177,80.19,64,40,11.5,CA,1661195979
236,Quatre Cocos,-20.2078,57.7625,72.09,74,89,16.37,MU,1661195979
237,Ereymentau,51.6199,73.1033,50.23,68,43,6.44,KZ,1661195980
238,Pisco,-13.7,-76.2167,60.85,82,100,10.36,PE,1661195980
239,Bereda,43.2686,-7.5406,68.41,96,100,6.4,ES,1661195980
240,Yellowknife,62.456,-114.3525,68.56,45,40,17.0,CA,1661195796
241,Solihull,52.4143,-1.7809,67.91,87,40,8.05,GB,1661195981
242,Rincon,32.296,-81.2354,87.76,75,75,6.91,US,1661195982
243,Poim,53.0264,43.1872,71.29,48,0,8.95,RU,1661195982
244,Camaná,-16.6228,-72.7111,63.55,71,47,7.92,PE,1661195983
245,Axum,14.1245,38.7244,57.9,88,78,1.7,ET,1661195983
246,Swan River,52.1058,-101.2676,71.49,56,87,8.05,CA,1661195984
247,Houma,29.5958,-90.7195,91.4,89,100,13.8,US,1661195984
248,Alamosa,37.4695,-105.87,71.58,46,20,5.75,US,1661195985
249,Staryy Nadym,65.6118,72.6842,60.69,86,100,5.91,RU,1661195985
250,Ayagoz,47.9714,80.4392,51.8,58,0,8.81,KZ,1661195986
251,Sørland,67.667,12.6934,53.46,86,90,29.04,NO,1661195987
252,Esim,4.8699,-2.2405,75.24,88,97,10.07,GH,1661195987
253,Daru,-9.0763,143.2092,76.41,88,84,15.01,PG,1661195987
254,Mareeba,-17.0,145.4333,61.45,93,10,1.95,AU,1661195988
255,Brookhaven,31.5791,-90.4407,87.46,74,100,3.33,US,1661195989
256,Lázaro Cárdenas,17.9583,-102.2,87.87,58,1,10.18,MX,1661195990
257,Flin Flon,54.7682,-101.865,66.04,59,100,4.61,CA,1661195732
258,Anshun,26.25,105.9333,66.38,97,97,2.95,CN,1661195991
259,Zenzeli,45.9241,47.0474,74.19,43,3,7.58,RU,1661195991
260,Yumen,40.2833,97.2,60.49,69,99,4.85,CN,1661195991
261,St. George's,12.0564,-61.7485,83.88,74,75,11.5,GD,1661195992
262,Fairbanks,64.8378,-147.7164,68.0,69,75,4.61,US,1661195820
263,Los Llanos de Aridane,28.6585,-17.9182,71.35,83,20,14.97,ES,1661195993
264,Korbous,36.8167,10.5687,82.44,64,2,19.73,TN,1661195993
265,Dossor,47.5272,52.9811,76.3,23,0,13.42,KZ,1661195994
266,Beyneu,45.3167,55.2,79.97,26,0,14.0,KZ,1661195994
267,Vilyuysk,63.7553,121.6247,41.94,93,100,6.26,RU,1661195995
268,Campoverde,-8.4753,-74.8058,87.49,26,5,3.27,PE,1661195995
269,Meulaboh,4.1363,96.1285,76.6,87,100,6.2,ID,1661195996
270,Tarko-Sale,64.9225,77.785,58.41,87,91,10.96,RU,1661195996
271,Riyadh,24.6877,46.7219,98.74,11,43,8.9,SA,1661195827
272,Cabo San Lucas,22.8909,-109.9124,93.18,51,20,11.5,MX,1661195903
273,Port Macquarie,-31.4333,152.9167,43.9,77,100,7.9,AU,1661195997
274,Paamiut,61.994,-49.6678,42.15,82,100,20.02,GL,1661195998
275,Srednekolymsk,67.45,153.6833,55.96,90,95,5.01,RU,1661195998
276,Inhambane,-23.865,35.3833,64.51,63,0,8.55,MZ,1661195999
277,Port Hedland,-20.3167,118.5667,59.05,44,0,9.22,AU,1661195999
278,Vestmanna,62.1564,-7.1664,50.92,87,75,14.97,FO,1661196000
279,Tuatapere,-46.1333,167.6833,39.09,86,94,6.78,NZ,1661196000
280,Bundaberg,-24.85,152.35,53.22,99,30,1.01,AU,1661196001
281,Roald,62.5833,6.1333,58.75,76,89,3.44,NO,1661196001
282,Svetlaya,46.5389,138.3297,62.71,88,100,11.86,RU,1661196002
283,Okakarara,-20.5833,17.4333,56.7,17,0,4.14,NA,1661196002
284,Simga,21.6333,81.7,76.6,83,4,8.46,IN,1661196003
285,Sirte,31.2089,16.5887,81.86,66,0,11.27,LY,1661196003
286,Bloemfontein,-29.1211,26.214,45.88,49,5,1.14,ZA,1661196004
287,Makīnsk,52.6292,70.4169,51.12,72,100,4.52,KZ,1661196004
288,Guaynabo,18.3575,-66.111,88.43,75,40,10.36,PR,1661196005
289,Carutapera,-1.195,-46.02,84.13,63,99,10.36,BR,1661196005
290,Kozhva,65.1073,57.0459,63.03,62,100,5.21,RU,1661196006
291,Airai,-8.9266,125.4092,51.98,67,99,4.18,TL,1661196006
292,Aykhal,66.0,111.5,36.37,99,100,7.05,RU,1661196007
293,Portland,45.5234,-122.6762,84.78,45,20,4.61,US,1661195855
294,Morón,-34.6534,-58.6198,62.8,61,52,7.05,AR,1661196008
295,Areosa,41.7178,-8.8571,70.83,75,73,17.31,PT,1661196008
296,Booué,-0.0921,11.9385,73.81,90,100,2.3,GA,1661196009
297,Namatanai,-3.6667,152.4333,78.13,79,27,4.88,PG,1661196009
298,Punakha,27.5837,89.8598,70.54,91,50,2.17,BT,1661196010
299,Mogadishu,2.0371,45.3438,75.88,87,7,19.04,SO,1661196010
300,Grand Gaube,-20.0064,57.6608,72.37,70,96,7.0,MU,1661196011
301,Argelia,2.2556,-77.2488,80.58,43,79,3.6,CO,1661196011
302,Sesimbra,38.4445,-9.1015,76.15,65,0,15.28,PT,1661196012
303,Joshīmath,30.5667,79.5667,69.24,85,89,1.88,IN,1661195957
304,Nome,64.5011,-165.4064,56.1,76,0,3.44,US,1661196013
305,Paulo Afonso,-9.4061,-38.2147,78.4,61,99,11.5,BR,1661196013
306,Ulaangom,49.9811,92.0667,52.48,40,51,6.31,MN,1661195789
307,Byron Bay,-28.65,153.6167,56.71,84,7,10.78,AU,1661195739
308,Burē,10.7,37.0667,56.08,95,94,4.09,ET,1661196014
309,Faya,18.3851,42.4509,77.52,36,85,6.69,SA,1661196015
310,Chapada dos Guimarães,-15.4606,-55.7497,85.66,20,99,6.29,BR,1661195848
311,Mae Sai,20.4335,99.8762,72.05,99,96,0.38,TH,1661196015
312,Lincoln,40.8,-96.667,88.14,52,75,6.91,US,1661195994
313,Mayumba,-3.432,10.6554,71.89,91,100,8.5,GA,1661196016
314,Paragominas,-2.9667,-47.4833,93.92,25,100,5.73,BR,1661196016
315,Opotiki,-38.0833,177.2833,48.38,95,71,3.38,NZ,1661196017
316,Huaraz,-9.5333,-77.5333,66.9,27,10,0.65,PE,1661196017
317,Seoul,37.5683,126.9778,71.17,94,100,9.22,KR,1661195925
318,Vostok,46.4856,135.8833,52.65,98,100,5.48,RU,1661195722
319,Pedernales,18.0384,-71.744,86.97,64,42,3.36,DO,1661196019
320,Korzhevskiy,45.1941,37.7195,78.49,27,48,14.36,RU,1661196019
321,Banjar,-8.19,114.9675,74.19,85,50,4.36,ID,1661196020
322,Carnarvon,-24.8667,113.6333,69.21,39,3,21.05,AU,1661196021
323,Jinchang,38.4953,102.1739,66.94,56,100,6.78,CN,1661196022
324,Longyearbyen,78.2186,15.6401,42.64,61,0,14.97,SJ,1661196022
325,Ryōtsu-minato,38.0833,138.4333,78.75,87,100,6.98,JP,1661196022
326,Hithadhoo,-0.6,73.0833,81.84,78,50,12.03,MV,1661196023
327,Barberton,-25.7884,31.0532,55.49,54,0,1.36,ZA,1661196024
328,Bagan,54.1001,77.6646,55.8,55,100,4.59,RU,1661196024
329,Doha,25.2867,51.5333,97.11,63,0,11.5,QA,1661195980
330,Bowen,-20.0167,148.2333,65.68,75,98,6.67,AU,1661196025
331,Iqaluit,63.7506,-68.5145,47.93,70,100,18.99,CA,1661196025
332,Vestmannaeyjar,63.4427,-20.2734,52.79,93,40,12.66,IS,1661196027
333,Copiapó,-27.3667,-70.3333,56.89,38,0,6.15,CL,1661195967
334,Altoona,40.5187,-78.3947,74.41,91,61,1.01,US,1661195751
335,Hisuā,24.8333,85.4167,84.38,71,96,5.88,IN,1661196027
336,Lavrentiya,65.5833,-171.0,38.03,76,49,1.66,RU,1661196028
337,Port Keats,-14.25,129.55,67.19,30,0,8.12,AU,1661196029
338,Togur,58.3631,82.8265,45.37,84,7,4.05,RU,1661196029
339,Saint Anthony,45.0205,-93.218,83.66,45,0,4.61,US,1661195732
340,Hofn,64.2539,-15.2082,50.56,83,100,4.94,IS,1661196030
341,Havre-St-Pierre,50.2334,-63.5986,66.56,94,100,13.8,CA,1661196030
342,Baie-Saint-Paul,47.4411,-70.4986,77.85,83,46,15.01,CA,1661196035
343,Mazara del Vallo,37.6641,12.588,80.55,62,0,11.36,IT,1661196037
344,Rio Grande,-32.035,-52.0986,69.91,74,0,6.98,BR,1661196037
345,Erdenet,49.0333,104.0833,44.53,76,100,2.66,MN,1661196041
346,Pundaguitan,6.3711,126.1689,82.69,73,100,10.22,PH,1661196041
347,Sabang,5.8933,95.3214,82.67,76,100,17.4,ID,1661196042
348,Alofi,-19.0595,-169.9187,64.29,100,20,2.3,NU,1661196042
349,Novoselytsya,48.2193,26.2653,73.18,69,54,2.39,UA,1661196043
350,Rājpīpla,21.8667,73.5,77.4,94,100,10.69,IN,1661195781
351,Clacton-on-Sea,51.7897,1.156,72.34,70,98,1.99,GB,1661196044
352,Letlhakane,-21.4167,25.5833,60.85,39,5,9.37,BW,1661196044
353,Rumphi,-11.0186,33.8575,60.37,88,10,3.36,MW,1661196045
354,Okha,53.5739,142.9478,55.2,83,100,7.38,RU,1661196045
355,Baykit,61.67,96.37,44.56,93,100,4.61,RU,1661196046
356,Malko Tarnovo,41.9833,27.5333,67.12,97,100,0.96,BG,1661196046
357,Lucea,18.451,-78.1736,84.06,75,61,9.19,JM,1661196047
358,Houston,29.7633,-95.3633,96.15,59,40,14.97,US,1661195458
359,Katangli,51.7102,143.2326,54.19,95,100,6.85,RU,1661196051
360,Alghero,40.5589,8.3181,77.09,78,0,4.61,IT,1661196052
361,Ranipur,27.2879,68.5051,81.23,86,99,6.35,PK,1661196052
362,Weligama,5.9667,80.4167,77.95,88,100,12.33,LK,1661196053
363,Udangudi,8.4333,78.0167,82.45,65,100,14.14,IN,1661196053
364,Cidreira,-30.1811,-50.2056,60.85,71,0,7.76,BR,1661195938
365,Lüderitz,-26.6481,15.1594,66.45,41,0,4.94,NA,1661195951
366,Deputatsky,69.3,139.9,45.52,93,98,4.74,RU,1661196054
367,Rawson,-43.3002,-65.1023,68.59,26,75,23.11,AR,1661196055
368,Kamaishi,39.2667,141.8833,73.69,96,99,8.43,JP,1661196055
369,Bose,45.4612,8.0137,75.85,59,5,4.88,IT,1661196056
370,Iroquois Falls,48.7669,-80.6831,77.5,43,6,2.62,CA,1661196056
371,Kem',64.9555,34.5793,64.17,71,53,9.82,RU,1661196057
372,Cairns,-16.9167,145.7667,66.07,93,7,9.22,AU,1661196062
373,Les Cayes,18.2,-73.75,86.0,65,85,10.11,HT,1661196063
374,Māngrol,21.1167,70.1167,80.76,85,100,17.02,IN,1661196063
375,Maltahöhe,-24.8333,16.9833,61.29,11,0,7.7,NA,1661196064
376,Valdivia,-39.8142,-73.2459,57.29,69,100,3.49,CL,1661195837
377,Tubmanburg,6.8708,-10.8172,75.11,93,100,5.14,LR,1661196065
378,Gimli,50.6336,-96.9907,69.62,82,69,12.21,CA,1661196065
379,Norman Wells,65.282,-126.8329,59.04,72,100,12.66,CA,1661196066
380,Ambositra,-20.5167,47.25,50.14,98,32,3.89,MG,1661196066
381,Kawalu,-7.3817,108.2082,70.27,98,85,1.23,ID,1661196067
382,Sistranda,63.7256,8.834,53.56,73,27,15.39,NO,1661196071
383,Amalāpuram,16.5833,82.0167,79.29,85,100,3.78,IN,1661196072
384,Shache,38.4167,77.2406,66.99,63,100,18.61,CN,1661196073
385,Adrar,20.5022,-10.0711,103.66,16,3,6.08,MR,1661196073
386,Camacha,33.0833,-16.3333,69.22,83,75,12.66,PT,1661196074
387,Kabalo,-6.05,26.9167,83.17,35,37,3.65,CD,1661196074
388,Brae,60.3964,-1.353,56.79,83,55,11.81,GB,1661195861
389,Hong Kong,22.2855,114.1577,86.38,86,100,8.01,HK,1661196049
390,Acapulco de Juárez,16.8634,-99.8901,87.62,70,75,8.05,MX,1661195816
391,Ahipara,-35.1667,173.1667,56.52,78,51,15.12,NZ,1661196076
392,Jūrmala,56.968,23.7704,68.02,94,0,8.05,LV,1661196076
393,Letnyaya Stavka,45.4306,43.4472,73.4,35,32,19.24,RU,1661196076
394,Nago,26.5881,127.9761,84.63,83,42,7.63,JP,1661196077
395,Ostrovnoy,68.0531,39.5131,63.55,60,12,19.82,RU,1661196077
396,Maiduguri,11.8464,13.1603,78.57,73,100,4.52,NG,1661196078
397,Krasnosel'kup,65.7,82.4667,54.34,77,100,11.79,RU,1661196078
398,Urzicuţa,44.0167,23.55,75.76,61,100,6.6,RO,1661196079
399,Nhulunbuy,-12.2333,136.7667,68.61,94,0,4.61,AU,1661196079
400,Kifrī,34.6959,44.9661,94.32,13,0,2.48,IQ,1661196080
401,Numan,9.4667,12.0333,74.48,91,100,7.54,NG,1661196080
402,Seydi,39.4816,62.9137,71.24,15,0,11.88,TM,1661196081
403,Laguna,38.421,-121.4238,91.02,49,0,1.99,US,1661195964
404,Sharan,54.8167,54.0,66.61,54,0,4.61,RU,1661196081
405,Bogashevo,56.3683,85.1447,42.64,100,100,0.0,RU,1661196082
406,Methven,-43.6333,171.65,37.9,76,0,5.44,NZ,1661196082
407,Leningradskiy,69.3833,178.4167,39.72,78,0,13.11,RU,1661196083
408,Ugoofaaru,5.6667,73.0,81.28,77,100,11.5,MV,1661196077
409,San Policarpo,12.1791,125.5072,78.01,87,100,7.43,PH,1661196084
410,Acolla,-11.7319,-75.5463,59.5,37,20,5.84,PE,1661196084
411,Sisimiut,66.9395,-53.6735,47.62,72,100,15.41,GL,1661196085
412,Dvinskoy,62.1535,45.1175,63.48,75,56,4.99,RU,1661196085
413,Kemin,42.7846,75.6892,58.06,41,77,5.64,KG,1661196086
414,Igarka,67.4667,86.5833,48.07,94,100,10.36,RU,1661196086
415,Cayenne,4.9333,-52.3333,77.04,88,100,5.75,GF,1661196087
416,Lira,2.235,32.9097,66.2,91,86,4.47,UG,1661196087
417,Moose Factory,51.2585,-80.6094,51.8,93,100,8.05,CA,1661196087
418,Omboué,-1.5746,9.2618,74.23,88,100,11.41,GA,1661196088
419,Hambantota,6.1241,81.1185,79.29,79,100,17.65,LK,1661196088
420,Panórama,40.5878,23.0315,77.52,69,20,5.75,GR,1661196089
421,Humaitá,-7.5061,-63.0208,98.94,21,26,4.81,BR,1661196089
422,Nueve de Julio,-35.4444,-60.8831,64.96,43,23,11.01,AR,1661196090
423,Atambua,-9.1061,124.8925,67.89,83,98,6.93,ID,1661196090
424,Areia Branca,-4.9561,-37.1369,91.6,67,100,14.74,BR,1661196091
425,Knysna,-34.0363,23.0471,53.01,91,99,5.53,ZA,1661196091
426,Baiyin,36.5583,104.2081,70.03,66,100,7.23,CN,1661196092
427,Sorong,-0.8833,131.25,77.76,85,96,3.85,ID,1661196092
428,Vila Franca do Campo,37.7167,-25.4333,73.81,67,65,3.11,PT,1661196093
429,Elizabethton,36.3487,-82.2107,84.94,60,40,0.0,US,1661196094
430,Kloulklubed,7.0419,134.2556,83.66,74,24,9.19,PW,1661196094
431,Thinadhoo,0.5333,72.9333,82.08,77,82,9.66,MV,1661196077
432,Narsaq,60.9167,-46.05,57.42,56,16,4.99,GL,1661196095
433,Husavik,66.0449,-17.3389,44.58,84,98,6.17,IS,1661195868
434,Cap Malheureux,-19.9842,57.6142,72.46,70,97,7.0,MU,1661196096
435,Praia,14.9215,-23.5087,84.74,74,75,10.36,CV,1661195821
436,Touros,-5.1989,-35.4608,80.08,75,92,18.16,BR,1661196093
437,Ţahţā,26.7693,31.5021,95.77,22,0,8.08,EG,1661196097
438,Saint-Pierre,-21.3393,55.4781,71.91,76,20,5.75,RE,1661196098
439,Almaty,43.25,76.95,51.71,50,20,2.24,KZ,1661196098
440,Sibolga,1.7427,98.7792,76.33,85,63,3.36,ID,1661196099
441,Wajir,1.7471,40.0573,78.84,55,0,22.88,KE,1661196099
442,Rørvik,64.8621,11.2373,55.38,82,75,17.27,NO,1661196100
443,Tamiahua,21.2667,-97.45,89.71,57,3,12.3,MX,1661196100
444,Leer,8.3018,30.1418,72.41,93,33,0.98,SS,1661196101
445,Luwuk,-0.9516,122.7875,74.48,89,100,6.55,ID,1661196101
446,Saint-Joseph,-21.3667,55.6167,66.2,73,12,8.95,RE,1661196102
447,Mayo,38.8876,-76.5119,88.95,76,20,5.75,US,1661196102
448,Whitianga,-36.8333,175.7,51.19,94,76,5.68,NZ,1661196103
449,Inírida,3.8653,-67.9239,77.18,90,78,2.8,CO,1661196103
450,Ambatofinandrahana,-20.55,46.8,52.66,84,5,6.33,MG,1661196104
451,Grootfontein,-19.5667,18.1167,49.57,34,0,1.14,NA,1661196104
452,Alenquer,-1.9417,-54.7383,85.6,58,91,2.35,BR,1661196105
453,Tankhoy,51.5528,105.1306,53.35,75,7,5.23,RU,1661196105
454,Poum,-20.2333,164.0167,72.68,80,37,10.92,NC,1661196106
455,Kedrovyy,56.1667,91.8167,46.87,79,100,0.29,RU,1661196106
456,Quelimane,-17.8786,36.8883,67.95,77,0,2.3,MZ,1661196107
457,Brainerd,46.358,-94.2008,78.82,50,100,5.75,US,1661195957
458,Hirara,24.8,125.2833,85.42,77,9,15.28,JP,1661196110
459,Chapais,49.7834,-74.8492,74.98,41,24,5.48,CA,1661196110
460,Winnemucca,40.973,-117.7357,88.12,13,0,10.07,US,1661196111
461,Irati,-25.4672,-50.6511,59.83,72,64,3.56,BR,1661196111
462,Celestún,20.8667,-90.4,87.75,62,1,13.06,MX,1661196112
463,Sur,22.5667,59.5289,89.4,60,94,9.75,OM,1661196112
464,Yerbogachën,61.2767,108.0108,45.88,91,100,3.87,RU,1661196113
465,Williston,48.147,-103.618,91.81,43,83,1.99,US,1661195521
466,Bulgan,48.8125,103.5347,46.13,74,100,1.52,MN,1661196113
467,Matagami,49.7502,-77.6328,78.91,44,75,8.05,CA,1661195997
468,Wuchang,44.9143,127.15,51.42,97,6,8.72,CN,1661196114
469,Codrington,-38.2667,141.9667,45.64,64,100,19.13,AU,1661195882
470,Agadir,30.4202,-9.5982,77.45,55,65,5.46,MA,1661196115
471,Duma,34.7653,108.135,73.2,55,93,4.23,CN,1661196115
472,Roebourne,-20.7833,117.1333,69.73,23,0,13.69,AU,1661196116
473,Kirakira,-10.4544,161.9205,76.06,77,24,8.1,SB,1661196116
474,Ferrol,43.4832,-8.2369,71.28,93,100,10.04,ES,1661196116
475,Chui,-33.6971,-53.4616,57.96,76,1,8.25,UY,1661196117
476,Morro Bay,35.3658,-120.8499,91.72,32,19,7.0,US,1661196117
477,Udachny,66.4167,112.4,39.45,100,100,4.85,RU,1661196118
478,Teguise,29.0605,-13.564,71.82,78,20,28.77,ES,1661196118
479,Bakel,14.905,-12.4568,87.64,59,82,3.06,SN,1661196119
480,Antofagasta,-23.65,-70.4,66.22,53,0,6.62,CL,1661196041
481,Vung Tau,10.346,107.0843,80.19,83,100,9.64,VN,1661196119
482,Basoko,1.2391,23.616,72.59,96,100,3.38,CD,1661196120
483,Coyhaique,-45.5752,-72.0662,51.75,66,100,5.75,CL,1661195912
484,Yichang,30.7144,111.2847,86.34,64,100,1.83,CN,1661196120
485,Biak,-0.9131,122.8766,73.96,86,100,8.57,ID,1661196121
486,Lynn Haven,30.2455,-85.6483,91.98,60,75,6.91,US,1661196121
487,Griffith,41.5284,-87.4237,82.06,62,40,8.05,US,1661196122
488,Répcelak,47.4211,17.018,63.91,90,100,16.75,HU,1661196122
489,Moranbah,-22.0016,148.0466,53.89,87,0,3.18,AU,1661196123
490,Turan,16.0678,108.2208,80.58,89,20,4.61,VN,1661195965
491,Sault Ste. Marie,46.5168,-84.3333,79.09,61,0,14.97,CA,1661195842
492,Wagar,16.1525,36.2032,89.06,46,100,6.31,SD,1661196123
493,Laibin,23.7,109.2667,80.65,84,100,3.13,CN,1661196124
494,Juneau,58.3019,-134.4197,64.09,87,75,3.44,US,1661195828
495,Russell,32.3502,-85.1999,82.96,78,40,3.44,US,1661196086
496,Atar,20.5169,-13.0499,103.48,20,34,6.93,MR,1661196125
497,Kavaratti,10.5669,72.642,80.46,80,56,18.43,IN,1661196125
498,San Jerónimo,-11.9472,-75.2829,62.08,37,24,6.24,PE,1661196126
499,Porosozero,62.7191,32.727,61.09,93,100,8.14,RU,1661196126
500,Liverpool,53.4106,-2.9779,67.28,90,75,5.75,GB,1661196079
501,Katsuura,35.1333,140.3,75.22,91,94,2.48,JP,1661196127
502,Zhigansk,66.7697,123.3711,41.11,95,100,15.37,RU,1661196127
503,Haines Junction,60.7522,-137.5108,57.15,77,100,2.3,CA,1661196128
504,Tornio,65.8481,24.1466,60.82,68,0,11.54,FI,1661196128
505,Bilma,18.6853,12.9164,95.61,32,22,10.42,NE,1661196129
506,Pertuis,43.6925,5.5028,79.95,45,0,6.22,FR,1661196129
507,Blairmore,49.6,-114.4353,80.19,28,34,2.59,CA,1661196130
508,Broome,42.2506,-75.833,76.17,88,75,4.61,US,1661196130
509,Fortuna,40.5982,-124.1573,77.94,63,0,12.66,US,1661196015
510,Acarí,-15.4311,-74.6158,74.32,48,0,8.46,PE,1661196131
511,Aitape,-3.1374,142.3475,76.96,88,29,7.7,PG,1661196131
512,Ballina,-28.8667,153.5667,56.79,84,1,10.18,AU,1661196132
513,Along,28.1667,94.7667,76.57,97,13,1.3,IN,1661196132
514,Iquique,-20.2208,-70.1431,59.04,66,8,7.67,CL,1661196133
515,Alvinópolis,-20.1067,-43.0489,76.44,32,0,5.73,BR,1661196133
516,Saldanha,-33.0117,17.9442,50.05,82,100,10.16,ZA,1661196134
517,Nizwá,22.9333,57.5333,92.44,34,60,4.52,OM,1661196134
518,Popova,42.9603,131.7228,65.12,71,0,11.81,RU,1661196135
519,Trincomalee,8.5711,81.2335,78.44,84,98,19.66,LK,1661196135
520,Neryungri,56.6709,124.6491,46.71,83,97,4.03,RU,1661196136
521,Olinda,-8.0089,-34.8553,73.13,88,75,17.27,BR,1661196141
522,Kachīry,53.0675,76.1036,51.85,59,34,6.29,KZ,1661196141
523,Pa Sang,18.5262,98.9394,78.78,95,100,1.3,TH,1661196142
524,Arlit,18.7369,7.3853,101.19,15,99,3.18,NE,1661196142
525,Kibala,9.1104,18.3463,73.58,88,17,4.05,TD,1661196143
526,Cururupu,-1.8283,-44.8683,84.97,56,91,7.09,BR,1661196143
527,Hervey Bay,-25.2986,152.8535,63.07,71,2,3.53,AU,1661196144
528,San Cristobal,7.7669,-72.225,82.58,62,100,7.14,VE,1661196145
529,Khorramshahr,30.4397,48.1664,94.96,28,0,4.61,IR,1661196145
530,Port Hardy,50.6996,-127.4199,62.78,88,100,4.61,CA,1661196146
531,Bani Walid,31.7566,13.9942,79.84,47,5,11.39,LY,1661196146
532,Kwang Binh,17.4833,106.6,80.98,79,93,4.85,VN,1661196147
533,Xichang,27.8964,102.2634,67.57,92,24,1.12,CN,1661196108
534,Yar-Sale,66.8333,70.8333,58.26,81,10,8.48,RU,1661196147
535,Borgentreich,51.5692,9.2411,74.16,44,98,10.11,DE,1661196148
536,Alès,44.1333,4.0833,78.08,54,0,7.02,FR,1661196148
537,São Raimundo das Mangabeiras,-7.0219,-45.4811,94.98,20,94,6.29,BR,1661196149
538,Oranjemund,-28.55,16.4333,57.52,77,0,5.5,NA,1661196149
539,Onega,63.9061,38.1404,68.81,61,95,10.22,RU,1661196150
540,Jizan,17.3333,42.6667,90.54,63,81,4.41,SA,1661196150
541,Tataouine,32.9297,10.4518,83.86,41,1,8.14,TN,1661196151
542,Ocala,29.1872,-82.1401,93.92,41,85,4.79,US,1661195900
543,Khanbari,27.3747,87.2039,72.03,89,24,2.53,NP,1661196151
544,Kosh-Agach,50.0,88.6667,39.06,73,18,1.97,RU,1661196152
545,La Asuncion,11.0333,-63.8628,83.93,74,26,12.66,VE,1661196152
546,Vao,-22.6667,167.4833,69.91,79,100,15.9,NC,1661196153
547,Gamba,-2.65,10.0,72.61,91,100,9.01,GA,1661196153
548,Anlu,31.1661,112.5831,84.04,70,100,7.34,CN,1661196154
549,Dalby,-27.1833,151.2667,44.98,97,0,10.31,AU,1661196154
550,Suvorovo,43.3333,27.6,73.35,90,0,3.89,BG,1661196155
551,Arrondissement de Thiers,45.8333,3.5,70.12,70,100,2.26,FR,1661196155
552,Lakes Entrance,-37.8811,147.981,41.16,94,100,11.61,AU,1661196156
553,Channel-Port aux Basques,47.5702,-59.1367,67.89,86,42,12.35,CA,1661196156
554,Poli,-3.3333,36.8,61.09,53,25,9.19,TZ,1661196156
555,Vicuña,-30.0319,-70.7081,77.77,40,0,5.79,CL,1661196157
556,Urbano Santos,-3.2078,-43.4036,94.87,26,94,3.02,BR,1661196158
557,Forsytheganj,52.6333,29.7333,67.77,47,4,7.11,BY,1661196158
558,Half Moon Bay,37.4636,-122.4286,89.89,67,0,13.8,US,1661196158
559,Tombouctou,20.0,-3.0,108.09,11,100,5.26,ML,1661196159
560,Cody,44.5263,-109.0565,86.2,32,0,10.36,US,1661195867
561,Khandyga,62.6667,135.6,41.0,95,100,3.8,RU,1661196160
562,Krasnogvardeyets,52.6804,52.3635,70.9,51,7,4.38,RU,1661196160
563,Alice Springs,-23.7,133.8833,53.15,62,100,24.16,AU,1661195959
564,Issaquah,47.5301,-122.0326,82.89,60,0,6.91,US,1661195619
565,Lavumisa,-27.31,31.892,59.41,72,0,1.99,SZ,1661196161
566,Río Gallegos,-51.6226,-69.2181,44.65,61,75,6.91,AR,1661196028
567,Ukiah,39.1502,-123.2078,94.44,37,0,11.5,US,1661196007
568,Kpandu,6.9954,0.2931,75.78,84,100,6.76,GH,1661196162
